{"data":[{"address":{"addressLine":"371 North Lake Park Boulevard","locality":"Carolina Beach","adminDistrict":"NC","postalCode":"28428","countryRegion":"United States"},"displayAddress":"371 North Lake Park Boulevard, Carolina Beach, NC 28428","position":{"latitude":34.03669,"longitude":-77.893851,"timeZone":"America/New_York"}},{"address":{"addressLine":"371 South Lake Park Boulevard","locality":"Carolina Beach","adminDistrict":"NC","postalCode":"28428","countryRegion":"United States"},"displayAddress":"371 South Lake Park Boulevard, Carolina Beach, NC 28428","position":{"latitude":34.030614,"longitude":-77.895123,"timeZone":"America/New_York"}},{"address":{"addressLine":"371 South Federal Highway","locality":"Pompano Beach","adminDistrict":"FL","postalCode":"33062","countryRegion":"United States"},"displayAddress":"371 South Federal Highway, Pompano Beach, FL 33062","position":{"latitude":26.228174,"longitude":-80.102822,"timeZone":"America/New_York"}},{"address":{"addressLine":"371 South Federal Highway","locality":"Boca Raton","adminDistrict":"FL","postalCode":"33432","countryRegion":"United States"},"displayAddress":"371 South Federal Highway, Boca Raton, FL 33432","position":{"latitude":26.346388,"longitude":-80.086452,"timeZone":"America/New_York"}},{"address":{"addressLine":"371 South Federal Highway","locality":"Hollywood","adminDistrict":"FL","postalCode":"33020","countryRegion":"United States"},"displayAddress":"371 South Federal Highway, Hollywood, FL 33020","position":{"latitude":26.009017,"longitude":-80.142861,"timeZone":"America/New_York"}}],"errors":null,"meta":{"provider":"azure","providerStatusCode":200}}